{
   "html_attributions" : [],
   "results" : [
      {
         "geometry" : {
            "location" : {
               "lat" : 40.7895612,
               "lng" : -73.9619069
            },
            "viewport" : {
               "northeast" : {
                  "lat" : 40.7904967,
                  "lng" : -73.9609078
               },
               "southwest" : {
                  "lat" : 40.7894021,
                  "lng" : -73.9631996
               }
            }
         },
         "icon" : "http://maps.gstatic.com/mapfiles/place_api/icons/generic_business-71.png",
         "id" : "1f8dea739fa4906a7eca7481dbc0d5a2bcff7fe6",
         "name" : "Central Park Tennis Center",
         "place_id" : "ChIJm17AB5pYwokRvAT6yLn623E",
         "reference" : "CpQBhQAAAH9w88dASH8PoFi9MRv7-yIHI1-MB9ngDyfqIYcDA3FrXvBaX7Ozw_es2ccwbS_8DsUTsoQEVGTleJiTNvWT0r-9j46dJfYduJ9WVm_MaM7SlTyjeEqQ2J0_1qnNbeKfRqfWSMc6obIo63Nqay1KMbf8s0tDQ_QRdLPt0Ss2EpVcQN4wyYE4PT3fuyhM0r3R-BIQUUViEezzKadltQTEsKROxxoU7AGDhuqXc7Uh86L0DrCsbWA-Xw4",
         "scope" : "GOOGLE",
         "types" : [ "establishment" ],
         "vicinity" : "Manhattan"
      },
      {
         "geometry" : {
            "location" : {
               "lat" : 40.7917758,
               "lng" : -73.9587593
            },
            "viewport" : {
               "northeast" : {
                  "lat" : 40.7935599,
                  "lng" : -73.9554655
               },
               "southwest" : {
                  "lat" : 40.79021849999999,
                  "lng" : -73.9614282
               }
            }
         },
         "icon" : "http://maps.gstatic.com/mapfiles/place_api/icons/generic_business-71.png",
         "id" : "59603fa33dd14aebd2c186db360ec530edd1b049",
         "name" : "North Meadow",
         "place_id" : "ChIJ32XY7h_2wokRXb54DHKYs00",
         "reference" : "CoQBdwAAAHgYoq6n7OHc09pDaFbJFp48YSemzRsm9DqKvZ4H_Ckd84m2DbYMT-oWgRARItoN1NDdheSf_QY9HmHv2bhXjzoWsLdOuYxYdmMJ5yX-mQfSd4yZ0T1oaYUxD8SwaZ3bqyb1ZyL1FtSE4Wgsvr-P7Zqs21xJB3PNaCkZ0Ufp3v96EhDb-joIUsZzAEZ8b1E-VXqqGhRjsowoRT4LHvBb5ZV-OhtSuAu1oA",
         "scope" : "GOOGLE",
         "types" : [ "park", "establishment" ],
         "vicinity" : "Manhattan"
      },
      {
         "geometry" : {
            "location" : {
               "lat" : 40.7828647,
               "lng" : -73.9653551
            },
            "viewport" : {
               "northeast" : {
                  "lat" : 40.8005207,
                  "lng" : -73.9493995
               },
               "southwest" : {
                  "lat" : 40.7645841,
                  "lng" : -73.9815758
               }
            }
         },
         "icon" : "http://maps.gstatic.com/mapfiles/place_api/icons/generic_business-71.png",
         "id" : "a170f23a94b2c6e63c6e429bef9e7c6669974c8d",
         "name" : "Central Park",
         "place_id" : "ChIJ4zGFAZpYwokRGUGph3Mf37k",
         "reference" : "CoQBdwAAACV-3bm9PlRNK7oWw_RiFRJMvV4Js0Mo8sAVE1kVIhOBrsSgIugw6N-cP-5AMDJrNVbxwaN3SUYcUPrsqLKwEUmwQOaGFTXGwk_KNffEwW0men02HyIPDCehIuSo5o-fPHiiI2XW8TsflyUXCSHmFGuIb87_FRjD1CAhc3IwUUuaEhAOsU3cl9Jfo12amwGgy7qLGhSIFzS2ytsXpi_z600ctMxpCwWqqg",
         "scope" : "GOOGLE",
         "types" : [ "park", "establishment" ],
         "vicinity" : "Manhattan"
      },
      {
         "geometry" : {
            "location" : {
               "lat" : 40.7711329,
               "lng" : -73.97418739999999
            },
            "viewport" : {
               "northeast" : {
                  "lat" : 40.800704,
                  "lng" : -73.94928080000001
               },
               "southwest" : {
                  "lat" : 40.764389,
                  "lng" : -73.98163409999999
               }
            }
         },
         "icon" : "http://maps.gstatic.com/mapfiles/place_api/icons/geocode-71.png",
         "id" : "f5591502ff1180bca0ece2a855628f9b1f6dc149",
         "name" : "Central Park",
         "place_id" : "ChIJ9ccLAZpYwokRthkg_S-WWcE",
         "reference" : "CpQBigAAAMotqpeNX2BeNfqBHCa1DUf0IWhyvOOgg3Muqf2lgBipwfoBlWxXYfQhnHucp6NZlZKz5ZYxyp9IVkWxLpsV4eBp4amCZ-VVv75ST2-S9_8SbXMeCLzqm7nuefTfeQA7Cy6cpejA0cznZNH6qrtrt8knQFIc59lEdTbZEG74IeiB5W3ZDt2gK1MtfSY5QmDDfRIQqAmKzpna_XhJNK60zIZeIxoUoa5oiP-mLTesJrwWOh3srhLKwEo",
         "scope" : "GOOGLE",
         "types" : [ "neighborhood", "political" ],
         "vicinity" : "Manhattan"
      },
      {
         "geometry" : {
            "location" : {
               "lat" : 40.789561,
               "lng" : -73.961907
            }
         },
         "icon" : "http://maps.gstatic.com/mapfiles/place_api/icons/generic_business-71.png",
         "id" : "20a39104d2bb409f4fed014d63bbf43d7bc38256",
         "name" : "Central Park Tennis Center",
         "opening_hours" : {
            "open_now" : true,
            "weekday_text" : []
         },
         "place_id" : "ChIJm17AB5pYwokRvAT6yLn623E",
         "rating" : 4.4,
         "reference" : "CoQBewAAAH4JwiYMZCrI49TQuGsBccz832EeEJFTEXc5q8Dnm3WFgEV_S0p7vyPMFilPyh8uAJYiLqRIUiM9e5maWmYSDA_wLR9EBdfsofLUSyT9lFSqSwt-K0L6mV47X2oQpLwEDcQmGXXMHiLZHYltAAXLwRuWk8zMnunIUWBD-KD5eDXfEhBFuDUifgRedQHs0rfEfGfqGhTgHuQb6UrQQAob52vQgG4BU0nNHA",
         "scope" : "GOOGLE",
         "types" : [ "establishment" ],
         "vicinity" : "central park, Manhattan, New York"
      },
      {
         "geometry" : {
            "location" : {
               "lat" : 40.791135,
               "lng" : -73.959678
            }
         },
         "icon" : "http://maps.gstatic.com/mapfiles/place_api/icons/generic_business-71.png",
         "id" : "b523fca35c91f096c60515182f1b49a5e0db8b7c",
         "name" : "North Meadow Recreation Center",
         "opening_hours" : {
            "open_now" : true,
            "weekday_text" : []
         },
         "photos" : [
            {
               "height" : 2048,
               "html_attributions" : [ "From a Google User" ],
               "photo_reference" : "CnRqAAAAXeWGijHCLGR823c3kHTyiWP6m3GXwrcTx2hfPO59iRc9fYwep9Ko_K0FHNvGp2ka-SXWWIvur30unUqQSfYnM3Tiv4oer-eCHSE6m9PO2iG2ePis-X1zTRznYpeln0rp-zxHKhrzlgADIjS36iyyzRIQTmOXlSv1oaPyv3z56hCJ3RoUVIhMU1eTf_1IMSRPFj3_qFH5K-k",
               "width" : 1530
            }
         ],
         "place_id" : "ChIJhSkZ_J9YwokRuPP6zzavTbk",
         "rating" : 4.2,
         "reference" : "CoQBgAAAAFgzxhOv5laXmp2_v3lxStz1X1OvNcagsKGyphXVWQO0UdbIn8lARcSjE_J-M2YjErjmj4fXchC4r7oI6kP7dggZCHIyFpX9BDio0ZOFCLXlEeR-tkc6mnb7Ugw_ZIGYq5T4oM4In6EMeO1tYMOggJWTbr01c8Coxb5gGo_7UFEuEhAGZ4f9ioZ6GSwDdtx_vIMPGhSJd39HuYMqMN44SLQJkiOpkcMHhw",
         "scope" : "GOOGLE",
         "types" : [ "establishment" ],
         "vicinity" : "97 St Mid park, New York"
      },
      {
         "geometry" : {
            "location" : {
               "lat" : 40.790278,
               "lng" : -73.959722
            },
            "viewport" : {
               "northeast" : {
                  "lat" : 40.820045,
                  "lng" : -73.90331300000001
               },
               "southwest" : {
                  "lat" : 40.698078,
                  "lng" : -74.03514899999999
               }
            }
         },
         "icon" : "http://maps.gstatic.com/mapfiles/place_api/icons/geocode-71.png",
         "id" : "476d37be9512ae1c37df40b54d55c5a911a413f1",
         "name" : "Manhattan",
         "place_id" : "ChIJYeZuBI9YwokRjMDs_IEyCwo",
         "reference" : "CpQBhwAAAG02ckkNp0u3FnJonZpWKRbl4Q8c9BX__gpo92ClwElGA90hwJiI9TwgVNX2O8MX587aaHlRP7ml9oRwv0micHOM4vx_IkSosH1HMjsTxwIfkxe0dPbm3kkrLOCMrGOdjDBDo4_hFJuxiR3cmingQTXDffAZkoEDC-khm6d7pQMOfwXFh5QEh2K7rtR87ZjnxBIQAJy1V0nuG7pco8a94iYgkBoU1ubyqZIRDYkq4dueMxShnNwfwag",
         "scope" : "GOOGLE",
         "types" : [ "sublocality_level_1", "sublocality", "political" ],
         "vicinity" : "Manhattan"
      }
   ],
   "status" : "OK"
}
