{
   "html_attributions" : [],
   "results" : [
      {
         "geometry" : {
            "location" : {
               "lat" : 40.704224,
               "lng" : -73.9933767
            },
            "viewport" : {
               "northeast" : {
                  "lat" : 40.7046402,
                  "lng" : -73.9907532
               },
               "southwest" : {
                  "lat" : 40.7038973,
                  "lng" : -73.9936967
               }
            }
         },
         "icon" : "http://maps.gstatic.com/mapfiles/place_api/icons/generic_business-71.png",
         "id" : "deb5edbc991de2d20cb3930eb0456ff217ce34b0",
         "name" : "Empire Fulton Ferry",
         "place_id" : "ChIJgd20_jBawokRVhO1eBK6QgM",
         "reference" : "CoQBfwAAANPxTe981m83tpopiwDwrqnWHpzP7noi1OiqZl_prKw28S7ZaG_BubWrLb2doLm-YbLjpqbEfwkXVHi5AmX5XeLGXvNEbMXq7PXaTYk8tLqdzmsFfVwnK0pUgMnq1krN2zpj8jtEMLntzvn5aQ61M7HfiBjhQIaw-4irJdTeBtkVEhA5UucCLQIMy4cseSHb4zMwGhRKtJqWtOAyiq6_qy_7b37etDDVNw",
         "scope" : "GOOGLE",
         "types" : [ "park", "establishment" ],
         "vicinity" : "Brooklyn"
      },
      {
         "geometry" : {
            "location" : {
               "lat" : 40.7043957,
               "lng" : -73.9896772
            },
            "viewport" : {
               "northeast" : {
                  "lat" : 40.7049549,
                  "lng" : -73.98844869999999
               },
               "southwest" : {
                  "lat" : 40.7038366,
                  "lng" : -73.9909057
               }
            }
         },
         "icon" : "http://maps.gstatic.com/mapfiles/place_api/icons/generic_business-71.png",
         "id" : "981c59f4de5253a13a45f5e3e6504ffaf0445a05",
         "name" : "Main Street Park",
         "place_id" : "ChIJE07VnDFawokRV4_29WBim6w",
         "reference" : "CoQBfAAAAFBexoXK9vc2h15M7ug1C5Jh2WURMc9CPynbVKa_wnZAgBrhk9VdSJDztvrErf-VLgrRtN-WEiLN8WVknShUPSBSSo18jJadUc0JjelLcFEKeGeQ5I9UwjL_uoB5B9ne_812e6YH98qjxlWAplfSkXal5BzpFvT7Ys91yXHnGsbfEhC9ssxGthmhaI1uihBlAP1aGhRW9szqKxFCj3iakHnHbv8onNhKpw",
         "scope" : "GOOGLE",
         "types" : [ "park", "establishment" ],
         "vicinity" : "Brooklyn"
      },
      {
         "geometry" : {
            "location" : {
               "lat" : 40.7035805,
               "lng" : -73.9921853
            },
            "viewport" : {
               "northeast" : {
                  "lat" : 40.7046113,
                  "lng" : -73.9895619
               },
               "southwest" : {
                  "lat" : 40.7018052,
                  "lng" : -73.99543059999999
               }
            }
         },
         "icon" : "http://maps.gstatic.com/mapfiles/place_api/icons/geocode-71.png",
         "id" : "aa38e4f3f9ddc9181105343c1b211372279c1cc5",
         "name" : "Fulton Ferry District",
         "place_id" : "ChIJdTz-5zBawokR__i8kbBkR88",
         "reference" : "CqQBlQAAAKPoLa3N6vxG4ZOZi4tZmmw1iDoegEQrJYvai2dYZ8_vpShwqjlmOvFFoy-SgHTJbivqkP375FODG_l1Xl7fkF4WsVa_JYyUmvB_2IOtm2-vwkqxAGos6pvhdXkINPSGx7wU3Xe4wkZDskSQ2OBGhuF2LjI_2lxbwv9erLUNnZPeRXyj6OSu2LtGwoQ9y9TI8KFqKqI3IETjBO85UDGoK4kSEFk6qSd_oyKbzhrQuPSF1IsaFEcbkZlHLDvGpZI4u-s5qFBsbPq0",
         "scope" : "GOOGLE",
         "types" : [ "neighborhood", "political" ],
         "vicinity" : "Brooklyn"
      },
      {
         "geometry" : {
            "location" : {
               "lat" : 40.704504,
               "lng" : -73.99235899999999
            }
         },
         "icon" : "http://maps.gstatic.com/mapfiles/place_api/icons/generic_business-71.png",
         "id" : "39cc68025d9cab66e9f581fcaa9f9c709d98539f",
         "name" : "Jane's Carousel",
         "photos" : [
            {
               "height" : 1224,
               "html_attributions" : [ "From a Google User" ],
               "photo_reference" : "CnRnAAAAE9Co9Z8GP0SLW32fJHz0HISA8hZXKoKnv6b6ggI8eNnScE_jIW2SzmjdgJt8vA8vY2P8raHpdKQpacV3Si1Uis9YdSexg9P4UFNRdw1fYQRd4R4gV379zgGAAO2WT1quxnRA_sqGJeYbx7kJ4hsQXhIQlkCiwTkHr8I_pxxuVAW8zRoUanGNMXwEOle-c4CC-C0qiN5zyLI",
               "width" : 1632
            }
         ],
         "place_id" : "ChIJU9mVHzFawokRcNNO_Su8zGM",
         "rating" : 4.5,
         "reference" : "CoQBcQAAADPnRUZEX3PHpME6YjV90X8MO-seEKu_q2G6x4nzZfvnqFlfo_wlln9p0pqFQi1-6hr017NBHkhRSbGOtqb1fqCz1_0fdNwKf-y82QYm6IRB7C9uDLRzYd9YQG4bO9RvjowEI2vIPwYFed68fiVXKmsAuH0E9wfiD8xldwLinhpJEhDC844tFbXrvKpQARM90VdrGhTUhUMu36dWdRQsGgBjqJ9I9OIfag",
         "scope" : "GOOGLE",
         "types" : [ "establishment" ],
         "vicinity" : "Brooklyn Bridge Park, Dock Street, New York"
      },
      {
         "geometry" : {
            "location" : {
               "lat" : 40.703056,
               "lng" : -73.98944399999999
            },
            "viewport" : {
               "northeast" : {
                  "lat" : 40.70556690000001,
                  "lng" : -73.98450849999999
               },
               "southwest" : {
                  "lat" : 40.7014434,
                  "lng" : -73.99457750000001
               }
            }
         },
         "icon" : "http://maps.gstatic.com/mapfiles/place_api/icons/geocode-71.png",
         "id" : "0c7cde3493a081a8adcf05dbc9cc9b036714ec03",
         "name" : "Dumbo",
         "place_id" : "ChIJ-7A-bzFawokRw8mvHCzZsc4",
         "reference" : "CpQBhAAAAADx85R3lf148lcVHmfxoNpuPRL_lCtL8jJNxYGVfSz1q5OoHIZUO5wIgAy51B213EMvZd_VM6lB_lEWqNDvPvI8KvO372KbiMWQhvakOg-Y7XVHQp-ajs4UNSnbyaP684VHyNO9m5EMiEZtf9bf8G6vhPRXA1cvRhPJnOftJ8BixSaqgs_7w2OK7L_IX3UWKRIQqG85amGLk2mIROBJLRrALhoUdDWNDT-wr6U9panKw3MAsHFALzw",
         "scope" : "GOOGLE",
         "types" : [ "neighborhood", "political" ],
         "vicinity" : "Brooklyn"
      }
   ],
   "status" : "OK"
}
