{
   "html_attributions" : [],
   "results" : [
      {
         "geometry" : {
            "location" : {
               "lat" : 40.7327309,
               "lng" : -73.97391189999999
            },
            "viewport" : {
               "northeast" : {
                  "lat" : 40.7341591,
                  "lng" : -73.9733451
               },
               "southwest" : {
                  "lat" : 40.7311552,
                  "lng" : -73.97449979999999
               }
            }
         },
         "icon" : "http://maps.gstatic.com/mapfiles/place_api/icons/generic_business-71.png",
         "id" : "935dacd09e5b0b27e26357bf0ab3a0ab44849a1d",
         "name" : "Stuyvesant Cove Park",
         "place_id" : "ChIJvy3g4HJZwokRoN5v-4v62R8",
         "reference" : "CoQBfwAAAHDMEPpOW_V2OQ7xy09fwj-_SmB0XWA_ux7mjwU5khWSoyvzET_cFAbthtKTIUcQQkapg17XKgypE-bNTWXnz92m6TDjfWvd6c36mb8ovszWI-h2PIkO9Pz983grgcz4LA-9Dx5hiZSYzVTrsMOgRgpNS02d8gyzqeMrpOGagg5EEhCu5dgT0IzVKP6HAJ1f40kQGhR8pk8WAXeKBe8CMGcNXIgWmN4s0A",
         "scope" : "GOOGLE",
         "types" : [ "park", "establishment" ],
         "vicinity" : "Manhattan"
      },
      {
         "geometry" : {
            "location" : {
               "lat" : 40.7316903,
               "lng" : -73.9778494
            },
            "viewport" : {
               "northeast" : {
                  "lat" : 40.7350027,
                  "lng" : -73.9734363
               },
               "southwest" : {
                  "lat" : 40.7284215,
                  "lng" : -73.9825694
               }
            }
         },
         "icon" : "http://maps.gstatic.com/mapfiles/place_api/icons/geocode-71.png",
         "id" : "44e3189df5fad8cde88d3d908a109a21e4fb8f07",
         "name" : "Stuyvesant Town",
         "place_id" : "ChIJoVoifnNZwokRBOHAiYH3L2U",
         "reference" : "CqQBlAAAAHqyI7EAsLxYMF8VqeKwi8hZqBljCWDYCxOCWQ3Vo8cvLSPRelTB4bfxG_qn59KS8GGr8xNaJNi2LYJWf0uEGPCThPVCpq2FtT-J9gXE_w86y-QqhXSk07CY10ZRa_rTjT6OjquEn3jw5lis3slgI6AozScJJoKHVj86Td4l-SagT5bAv4oP73w1MgKNdMz3tzIIsJe-CsTYCNccu1H5nQoSEI_MK6MDAatGdaOWHrb5yMQaFEHn9P5DlYhNoofoCVdUCjLkxg0G",
         "scope" : "GOOGLE",
         "types" : [ "neighborhood", "political" ],
         "vicinity" : "Manhattan"
      },
      {
         "geometry" : {
            "location" : {
               "lat" : 40.732731,
               "lng" : -73.973912
            }
         },
         "icon" : "http://maps.gstatic.com/mapfiles/place_api/icons/generic_business-71.png",
         "id" : "eb21d98badca682b0bc2b53af4fff1c4c1a0c2f4",
         "name" : "Stuyvesant Cove Park",
         "photos" : [
            {
               "height" : 1344,
               "html_attributions" : [ "From a Google User" ],
               "photo_reference" : "CnRqAAAAiLY2oddDE81-B4Virg_hMxow4PBBnxjJNZXaHuAF139TyR7ZH-Ecnif18uJYnCNk7MmRZzkDlS4JiL5uEQhFeIfpCrMFJirYDPs8OkodFeSyDx9vxadQ75oEmSPDKTKZ4rofGvFKxGZ1DNum4fkcXBIQ61NEeAvRvYrXJGYfr0XhoRoUqhVE9bdrdwRjYyL4CJ4FbI2iGWk",
               "width" : 2010
            }
         ],
         "place_id" : "ChIJvy3g4HJZwokRoN5v-4v62R8",
         "rating" : 4.1,
         "reference" : "CoQBdQAAAON4iiexllTyPf7b5qG2bvlyHavsBxlVceqGM7NMFrhEPMZsfuDLEsOp5_3tNV1rQCKMCh1bSAyaf-8JmHCU6XvGUR3AJvoL6kvQHe180whMSzBqIC3YanNilovov2TvbgTi0ukowvEhpld0aF9Czu-QkCkTIjGdGGLo8SNWff-yEhAPi924tq6tt9TgjJewXCjwGhTgzGbkjWLRirLAI1KsJzD06iumfQ",
         "scope" : "GOOGLE",
         "types" : [ "park", "establishment" ],
         "vicinity" : "New York"
      },
      {
         "geometry" : {
            "location" : {
               "lat" : 40.730999,
               "lng" : -73.97551799999999
            }
         },
         "icon" : "http://maps.gstatic.com/mapfiles/place_api/icons/generic_business-71.png",
         "id" : "d1dddd524a07d7f29423fcd510c0ab504319da4e",
         "name" : "New York City Cultural Walking Tours",
         "place_id" : "ChIJKfyg4ohZwokRvK5L71n8h7U",
         "reference" : "CpQBhgAAAC2rJskOB3tpvj79NZapY2P8ZBW9vtO7bWbDxsDuwu7E_gRNu-IXQxNMxLjIIJthhpkOD5OdOIB_pXVWiK_AeKotyxjHG7kOE_E8NinFHZq0dH0ZiQjAmcQK7xOUYpSsApI5R9jCEvCFlfG41sjG5ezgH4UW73bSTh7bcEVWYEMK9M6OYd3xkDBklRDw5JKrABIQvMA6Z1nX6oFwjpBkbjIX4xoUJlEtC4Av3M89KndyT0YzJTiXrLU",
         "scope" : "GOOGLE",
         "types" : [ "establishment" ],
         "vicinity" : "285 Avenue C, New York"
      },
      {
         "geometry" : {
            "location" : {
               "lat" : 40.7549309,
               "lng" : -73.9840195
            },
            "viewport" : {
               "northeast" : {
                  "lat" : 40.77410690000001,
                  "lng" : -73.95889869999999
               },
               "southwest" : {
                  "lat" : 40.72686849999999,
                  "lng" : -74.0089488
               }
            }
         },
         "icon" : "http://maps.gstatic.com/mapfiles/place_api/icons/geocode-71.png",
         "id" : "8509d8c2133827617033e5688c3202fca0d57c70",
         "name" : "Midtown",
         "place_id" : "ChIJqXwSpAFZwokR28_WgZDMzb4",
         "reference" : "CpQBhQAAAI-aVMUMqvu3EF1H5Wz994hxatIGuZLoXY1nbBMIAWrdkcoGDCkXLbNyJkRP_oVaBU_sS8NJrnPY-RIY12fxaETlTDqumHpOLgDNyg1TEst6NdkWVfljZtO8stOefwucn79b5vAMu26RUAQl7Biacyz9-Za5oc1j1AchvZ_s1FvNMuWnzTZgVUPiXibIKfU_1xIQw1W0HJ2bShxJP9ypg4eKVxoUCKNFynTTvRahTFGTqTQZit4TKyk",
         "scope" : "GOOGLE",
         "types" : [ "neighborhood", "political" ],
         "vicinity" : "Manhattan"
      }
   ],
   "status" : "OK"
}
